<?xml version="1.0" encoding="UTF-8"?>
<ls fromIbm="1">
    <l feed="2" ros="n" station="owm_RSXX0063" delay="41" icon="26" tempC="27" tempF="81" ws="5" wd="204" rh="48" psl="29.94" dpF="59" gmtMin="180" sr="0:54" ss="18:14" day="True" code="RSXX0063" codeForeca="100524901" name="Москва" country="Россия" lat="55.752" lon="37.616" pop="10381222" prov="w" NOAA="0" OWM="1" Yr="1" Foreca="0"/>
    <l feed="2" ros="c" station="owm_RSXX0086" delay="41" icon="32" tempC="27" tempF="81" ws="9" wd="200" rh="57" psl="29.97" dpF="65" gmtMin="180" sr="0:57" ss="18:11" day="True" code="RSXX0086" codeForeca="100508101" name="Подольск" country="Россия" state="Московская область" lat="55.424" lon="37.555" pop="179400" prov="w" NOAA="0" OWM="1" Yr="1" Foreca="0"/>
    <l feed="2" ros="n" station="owm_RSXX1466" delay="13" icon="26" tempC="28" tempF="82" ws="5" wd="208" rh="49" psl="29.94" dpF="61" gmtMin="180" sr="0:52" ss="18:13" day="True" code="RSXX1466" codeForeca="100495344" name="Щёлково" country="Россия" state="Московская область" lat="55.893" lon="38.059" pop="113000" prov="w" NOAA="0" OWM="1" Yr="1" Foreca="0"/>
    <l feed="2" ros="n" station="owm_RSXX1466" delay="13" icon="26" tempC="28" tempF="82" ws="5" wd="208" rh="49" psl="29.94" dpF="61" gmtMin="180" sr="0:53" ss="18:12" day="True" code="RSXX1466" codeForeca="100463355" name="Железнодорожный" country="Россия" state="Московская область" lat="55.744" lon="38.017" pop="100000" prov="w" NOAA="0" OWM="1" Yr="1" Foreca="0"/>
    <l feed="2" ros="c" station="owm_RSXX1487" delay="29" icon="32" tempC="27" tempF="80" ws="4" wd="160" rh="57" psl="29.97" dpF="64" gmtMin="180" sr="0:54" ss="18:10" day="True" code="RSXX1487" codeForeca="100462755" name="ЖУКОВСКИЙ" country="Россия" state="Московская область" lat="55.595" lon="38.120" pop="97200" prov="w" NOAA="0" OWM="1" Yr="1" Foreca="0"/>
    <l feed="2" ros="n" station="owm_RSXX1469" delay="13" icon="28" tempC="27" tempF="81" ws="5" wd="194" rh="50" psl="29.94" dpF="60" gmtMin="180" sr="0:59" ss="18:10" day="True" code="RSXX1469" codeForeca="100569591" name="ЧЕХОВ" country="Россия" state="Московская область" lat="55.148" lon="37.477" pop="75643" prov="w" NOAA="0" OWM="1" Yr="1" Foreca="0"/>
    <l feed="2" ros="c" station="owm_RSXX0086" delay="41" icon="32" tempC="27" tempF="81" ws="9" wd="200" rh="57" psl="29.97" dpF="65" gmtMin="180" sr="0:57" ss="18:11" day="True" code="RSXX0086" codeForeca="100547560" name="Климовск" country="Россия" state="Московская область" lat="55.364" lon="37.530" pop="55206" prov="w" NOAA="0" OWM="1" Yr="1" Foreca="0"/>
    <l feed="2" ros="c" station="owm_RSXX1499" delay="28" icon="32" tempC="28" tempF="82" ws="9" wd="200" rh="58" psl="29.97" dpF="66" gmtMin="180" sr="0:56" ss="18:11" day="True" code="RSXX1499" codeForeca="100565381" name="ДОМОДЕДОВО" country="Россия" state="Московская область" lat="55.441" lon="37.754" pop="53887" prov="w" NOAA="0" OWM="1" Yr="1" Foreca="0"/>
    <l feed="2" ros="c" station="owm_RSXX0056" delay="41" icon="32" tempC="27" tempF="81" ws="4" wd="160" rh="57" psl="29.97" dpF="64" gmtMin="180" sr="0:54" ss="18:11" day="True" code="RSXX0056" codeForeca="100532657" name="ЛЫТКАРИНО" country="Россия" state="Московская область" lat="55.583" lon="37.905" pop="50619" prov="w" NOAA="0" OWM="1" Yr="1" Foreca="0"/>
    <l feed="2" ros="n" station="owm_RSXX1465" delay="13" icon="28" tempC="27" tempF="80" ws="7" wd="0" rh="57" psl="29.97" dpF="64" gmtMin="180" sr="0:58" ss="18:13" day="True" code="RSXX1465" codeForeca="100481608" name="ТРОИЦК" country="Россия" state="Московская область" lat="55.485" lon="37.307" pop="37591" prov="w" NOAA="0" OWM="1" Yr="1" Foreca="0"/>
    <l feed="2" ros="n" station="owm_RSXX1465" delay="13" icon="28" tempC="27" tempF="80" ws="7" wd="0" rh="57" psl="29.97" dpF="64" gmtMin="180" sr="0:58" ss="18:15" day="True" code="RSXX1465" codeForeca="106417459" name="Краснознаменск" country="Россия" state="Московская область" lat="55.599" lon="37.039" pop="33700" prov="w" NOAA="0" OWM="1" Yr="1" Foreca="0"/>
    <l feed="2" ros="n" station="owm_RSXX1504" delay="28" icon="30" tempC="27" tempF="80" ws="11" wd="190" rh="50" psl="29.94" dpF="60" gmtMin="180" sr="0:55" ss="18:16" day="True" code="RSXX1504" codeForeca="100523553" name="Нахабино" country="Россия" state="Московская область" lat="55.849" lon="37.178" pop="31715" prov="w" NOAA="0" OWM="1" Yr="1" Foreca="0"/>
    <l feed="2" ros="c" station="owm_RSXX0056" delay="41" icon="32" tempC="27" tempF="81" ws="4" wd="160" rh="57" psl="29.97" dpF="64" gmtMin="180" sr="0:54" ss="18:12" day="True" code="RSXX0056" codeForeca="100532615" name="ЛЮБЕРЦЫ" country="Россия" state="Московская область" lat="55.677" lon="37.893" pop="154650" prov="w" NOAA="0" OWM="1" Yr="1" Foreca="0"/>
    <l feed="2" ros="n" station="owm_RSXX1504" delay="28" icon="30" tempC="27" tempF="80" ws="11" wd="190" rh="50" psl="29.94" dpF="60" gmtMin="180" sr="0:56" ss="18:16" day="True" code="RSXX1504" codeForeca="100566854" name="ДЕДОВСК" country="Россия" state="Московская область" lat="55.869" lon="37.122" pop="27001" prov="w" NOAA="0" OWM="1" Yr="1" Foreca="0"/>
    <l feed="2" ros="n" station="owm_RSXX1466" delay="13" icon="26" tempC="28" tempF="82" ws="5" wd="208" rh="49" psl="29.94" dpF="61" gmtMin="180" sr="0:52" ss="18:12" day="True" code="RSXX1466" codeForeca="100569077" name="Заря" country="Россия" state="Московская область" lat="55.755" lon="38.096" pop="27000" prov="w" NOAA="0" OWM="1" Yr="1" Foreca="0"/>
    <l feed="2" ros="n" station="owm_RSXX1639" delay="28" icon="28" tempC="27" tempF="80" ws="9" wd="190" rh="57" psl="29.97" dpF="63" gmtMin="180" sr="0:57" ss="18:14" day="True" code="RSXX1639" codeForeca="100482329" name="Внуково, Постниково" country="Россия" state="Москва" lat="55.600" lon="37.217" pop="20592" prov="w" NOAA="0" OWM="1" Yr="1" Foreca="0"/>
    <l feed="2" ros="n" station="owm_RSXX1474" delay="13" icon="30" tempC="27" tempF="80" ws="9" wd="220" rh="50" psl="29.94" dpF="60" gmtMin="180" sr="0:55" ss="18:15" day="True" code="RSXX1474" codeForeca="100500843" name="Рублево, Zakharkovo" country="Россия" state="Москва" lat="55.785" lon="37.355" pop="20000" prov="w" NOAA="0" OWM="1" Yr="1" Foreca="0"/>
    <l feed="2" ros="c" station="owm_RSXX0056" delay="41" icon="32" tempC="27" tempF="81" ws="4" wd="160" rh="57" psl="29.97" dpF="64" gmtMin="180" sr="0:54" ss="18:12" day="True" code="RSXX0056" codeForeca="100563705" name="Котельники" country="Россия" state="Московская область" lat="55.635" lon="37.845" pop="18300" prov="w" NOAA="0" OWM="1" Yr="1" Foreca="0"/>
    <l feed="2" ros="c" station="owm_RSXX0086" delay="41" icon="32" tempC="27" tempF="81" ws="9" wd="200" rh="57" psl="29.97" dpF="65" gmtMin="180" sr="0:56" ss="18:10" day="True" code="RSXX0086" codeForeca="100471457" name="ВОСТРЯКОВО" country="Россия" state="Московская область" lat="55.399" lon="37.808" pop="16509" prov="w" NOAA="0" OWM="1" Yr="1" Foreca="0"/>
    <l feed="2" ros="r" station="owm_RSXX1505" delay="28" icon="11" tempC="26" tempF="79" ws="5" wd="231" rh="54" psl="29.94" dpF="61" gmtMin="180" sr="0:58" ss="18:16" day="True" code="RSXX1505" codeForeca="100461920" name="Звенигород" country="Россия" state="Московская область" lat="55.734" lon="36.859" pop="16395" prov="w" NOAA="0" OWM="1" Yr="1" Foreca="0"/>
    <l feed="2" ros="n" station="owm_RSXX1465" delay="13" icon="28" tempC="27" tempF="80" ws="7" wd="0" rh="57" psl="29.97" dpF="64" gmtMin="180" sr="0:58" ss="18:15" day="True" code="RSXX1465" codeForeca="100560756" name="Голицыно" country="Россия" state="Московская область" lat="55.609" lon="36.982" pop="16056" prov="w" NOAA="0" OWM="1" Yr="1" Foreca="0"/>
    <l feed="2" ros="n" station="owm_RSXX1639" delay="28" icon="28" tempC="27" tempF="80" ws="9" wd="190" rh="57" psl="29.97" dpF="63" gmtMin="180" sr="0:57" ss="18:14" day="True" code="RSXX1639" codeForeca="100857690" name="Московский" country="Россия" state="Московская область" lat="55.599" lon="37.355" pop="15435" prov="w" NOAA="0" OWM="1" Yr="1" Foreca="0"/>
    <l feed="2" ros="n" station="owm_RSXX1497" delay="28" icon="28" tempC="27" tempF="80" ws="6" wd="196" rh="56" psl="29.97" dpF="63" gmtMin="180" sr="0:57" ss="18:8" day="True" code="RSXX1497" codeForeca="100463050" name="МИХНЕВО" country="Россия" state="Московская область" lat="55.127" lon="37.955" pop="10726" prov="w" NOAA="0" OWM="1" Yr="1" Foreca="0"/>
    <l feed="2" ros="n" station="owm_RSXX1466" delay="13" icon="26" tempC="28" tempF="82" ws="5" wd="208" rh="49" psl="29.94" dpF="61" gmtMin="180" sr="0:53" ss="18:13" day="True" code="RSXX1466" codeForeca="100579464" name="Балашиха" country="Россия" state="Московская область" lat="55.809" lon="37.958" pop="150103" prov="w" NOAA="0" OWM="1" Yr="1" Foreca="0"/>
    <l feed="2" ros="r" station="owm_RSXX1482" delay="29" icon="11" tempC="26" tempF="79" ws="5" wd="229" rh="51" psl="29.94" dpF="59" gmtMin="180" sr="0:59" ss="18:14" day="True" code="RSXX1482" codeForeca="106697077" name="Киевский" country="Россия" lat="55.436" lon="36.898" pop="9700" prov="w" NOAA="0" OWM="1" Yr="1" Foreca="0"/>
    <l feed="2" ros="n" station="owm_RSXX1465" delay="13" icon="28" tempC="27" tempF="80" ws="7" wd="0" rh="57" psl="29.97" dpF="64" gmtMin="180" sr="0:57" ss="18:13" day="True" code="RSXX1465" codeForeca="100476372" name="Ватутинки" country="Россия" state="Московская область" lat="55.497" lon="37.330" pop="9502" prov="w" NOAA="0" OWM="1" Yr="1" Foreca="0"/>
    <l feed="2" ros="c" station="owm_RSXX1487" delay="29" icon="32" tempC="27" tempF="80" ws="4" wd="160" rh="57" psl="29.97" dpF="64" gmtMin="180" sr="0:53" ss="18:11" day="True" code="RSXX1487" codeForeca="100570298" name="Быково" country="Россия" state="Московская область" lat="55.636" lon="38.080" pop="9159" prov="w" NOAA="0" OWM="1" Yr="1" Foreca="0"/>
    <l feed="2" ros="r" station="owm_RSXX1505" delay="28" icon="11" tempC="26" tempF="79" ws="5" wd="231" rh="54" psl="29.94" dpF="61" gmtMin="180" sr="0:57" ss="18:16" day="True" code="RSXX1505" codeForeca="100521821" name="Николина Гора" country="Россия" state="Московская область" lat="55.734" lon="37.044" pop="7046" prov="w" NOAA="0" OWM="1" Yr="1" Foreca="0"/>
    <l feed="2" ros="c" station="owm_RSXX0086" delay="41" icon="32" tempC="27" tempF="81" ws="9" wd="200" rh="57" psl="29.97" dpF="65" gmtMin="180" sr="0:56" ss="18:10" day="True" code="RSXX0086" codeForeca="100577551" name="БЕЛЫЕ СТОЛБЫ" country="Россия" state="Московская область" lat="55.331" lon="37.854" pop="5563" prov="w" NOAA="0" OWM="1" Yr="1" Foreca="0"/>
    <l feed="2" ros="c" station="owm_RSXX1499" delay="28" icon="32" tempC="28" tempF="82" ws="9" wd="200" rh="58" psl="29.97" dpF="66" gmtMin="180" sr="0:56" ss="18:13" day="True" code="RSXX1499" codeForeca="100545782" name="Мосрентген" country="Россия" state="Московская область" lat="55.620" lon="37.464" pop="5214" prov="w" NOAA="0" OWM="1" Yr="1" Foreca="0"/>
    <l feed="2" ros="n" station="owm_RSXX1469" delay="13" icon="28" tempC="27" tempF="81" ws="5" wd="194" rh="50" psl="29.94" dpF="60" gmtMin="180" sr="0:58" ss="18:11" day="True" code="RSXX1469" codeForeca="100487441" name="СТОЛБОВАЯ" country="Россия" state="Московская область" lat="55.250" lon="37.492" pop="5142" prov="w" NOAA="0" OWM="1" Yr="1" Foreca="0"/>
    <l feed="2" ros="c" station="owm_RSXX1499" delay="28" icon="32" tempC="28" tempF="82" ws="9" wd="200" rh="58" psl="29.97" dpF="66" gmtMin="180" sr="0:55" ss="18:10" day="True" code="RSXX1499" codeForeca="100469533" name="Яковлевское" country="Россия" state="Московская область" lat="55.442" lon="37.948" pop="4330" prov="w" NOAA="0" OWM="1" Yr="1" Foreca="0"/>
    <l feed="2" ros="n" station="owm_RSXX1497" delay="28" icon="28" tempC="27" tempF="80" ws="6" wd="196" rh="56" psl="29.97" dpF="63" gmtMin="180" sr="0:57" ss="18:7" day="True" code="RSXX1497" codeForeca="100531098" name="Малино" country="Россия" state="Московская область" lat="55.112" lon="38.174" pop="4327" prov="w" NOAA="0" OWM="1" Yr="1" Foreca="0"/>
    <l feed="2" ros="n" station="owm_RSXX1639" delay="28" icon="28" tempC="27" tempF="80" ws="9" wd="190" rh="57" psl="29.97" dpF="63" gmtMin="180" sr="0:56" ss="18:15" day="True" code="RSXX1639" codeForeca="100578953" name="Барвиха" country="Россия" state="Московская область" lat="55.742" lon="37.279" pop="4193" prov="w" NOAA="0" OWM="1" Yr="1" Foreca="0"/>
    <l feed="2" ros="c" station="owm_RSXX0056" delay="41" icon="32" tempC="27" tempF="81" ws="4" wd="160" rh="57" psl="29.97" dpF="64" gmtMin="180" sr="0:54" ss="18:12" day="True" code="RSXX0056" codeForeca="100532615" name="Жулебино" country="Россия" state="Москва" lat="55.700" lon="37.850" pop="150000" prov="w" NOAA="0" OWM="1" Yr="1" Foreca="0"/>
    <l feed="2" ros="n" station="owm_RSXX0065" delay="41" icon="26" tempC="27" tempF="81" ws="5" wd="220" rh="50" psl="29.94" dpF="60" gmtMin="180" sr="0:53" ss="18:14" day="True" code="RSXX0065" codeForeca="100564912" name="Дружба" country="Россия" state="Московская область" lat="55.886" lon="37.743" pop="4058" prov="w" NOAA="0" OWM="1" Yr="1" Foreca="0"/>
    <l feed="2" ros="c" station="owm_RSXX0086" delay="41" icon="32" tempC="27" tempF="81" ws="9" wd="200" rh="57" psl="29.97" dpF="65" gmtMin="180" sr="0:57" ss="18:9" day="True" code="RSXX0086" codeForeca="100578940" name="БАРЫБИНО" country="Россия" state="Московская область" lat="55.268" lon="37.893" pop="3994" prov="w" NOAA="0" OWM="1" Yr="1" Foreca="0"/>
    <l feed="2" ros="n" station="owm_RSXX1469" delay="13" icon="28" tempC="27" tempF="81" ws="5" wd="194" rh="50" psl="29.94" dpF="60" gmtMin="180" sr="0:59" ss="18:9" day="True" code="RSXX1469" codeForeca="100527697" name="Мелихово" country="Россия" state="Московская область" lat="55.114" lon="37.648" pop="3821" prov="w" NOAA="0" OWM="1" Yr="1" Foreca="0"/>
    <l feed="2" ros="n" station="owm_RSXX1469" delay="13" icon="28" tempC="27" tempF="81" ws="5" wd="194" rh="50" psl="29.94" dpF="60" gmtMin="180" sr="0:58" ss="18:10" day="True" code="RSXX1469" codeForeca="100532477" name="Любучаны" country="Россия" state="Московская область" lat="55.251" lon="37.550" pop="3537" prov="w" NOAA="0" OWM="1" Yr="1" Foreca="0"/>
    <l feed="2" ros="n" station="owm_RSXX1467" delay="13" icon="34" tempC="28" tempF="82" ws="4" wd="180" rh="54" psl="29.97" dpF="64" gmtMin="180" sr="0:56" ss="18:8" day="True" code="RSXX1467" codeForeca="100527429" name="Авдотьино" country="Россия" state="Московская область" lat="55.247" lon="38.187" pop="100" prov="w" NOAA="0" OWM="1" Yr="1" Foreca="0"/>
    <l feed="2" ros="n" station="owm_RSXX1474" delay="13" icon="30" tempC="27" tempF="80" ws="9" wd="220" rh="50" psl="29.94" dpF="60" gmtMin="180" sr="0:54" ss="18:15" day="True" code="RSXX1474" codeForeca="100550280" name="Бескудниково, Нагорное" country="Россия" state="Москва" lat="55.860" lon="37.560" prov="w" NOAA="0" OWM="1" Yr="1" Foreca="0"/>
    <l feed="2" ros="n" station="owm_RSXX1383" delay="13" icon="28" tempC="28" tempF="82" ws="5" wd="209" rh="50" psl="29.94" dpF="61" gmtMin="180" sr="1:1" ss="18:12" day="True" code="RSXX1383" codeForeca="100462792" name="Тарутино" country="Россия" state="Калужская область" lat="55.122" lon="36.941" prov="w" NOAA="0" OWM="1" Yr="1" Foreca="0"/>
    <l feed="2" ros="c" station="owm_RSXX1499" delay="28" icon="32" tempC="28" tempF="82" ws="9" wd="200" rh="58" psl="29.97" dpF="66" gmtMin="180" sr="0:55" ss="18:12" day="True" code="RSXX1499" codeForeca="100473778" name="Бирюлёво" country="Россия" state="Москва" lat="55.586" lon="37.678" pop="144000" prov="w" NOAA="0" OWM="1" Yr="1" Foreca="0"/>
    <l feed="2" ros="n" station="owm_RSXX1474" delay="13" icon="30" tempC="27" tempF="80" ws="9" wd="220" rh="50" psl="29.94" dpF="60" gmtMin="180" sr="0:54" ss="18:15" day="True" code="RSXX1474" codeForeca="100550280" name="Химки" country="Россия" state="Москва" lat="55.897" lon="37.430" pop="142618" prov="w" NOAA="0" OWM="1" Yr="1" Foreca="0"/>
    <l feed="2" ros="n" station="owm_RSXX1639" delay="28" icon="28" tempC="27" tempF="80" ws="9" wd="190" rh="57" psl="29.97" dpF="63" gmtMin="180" sr="0:56" ss="18:14" day="True" code="RSXX1639" codeForeca="100516215" name="Одинцово" country="Россия" state="Московская область" lat="55.678" lon="37.278" pop="137041" prov="w" NOAA="0" OWM="1" Yr="1" Foreca="0"/>
    <l feed="2" ros="c" station="owm_RSXX1499" delay="28" icon="32" tempC="28" tempF="82" ws="9" wd="200" rh="58" psl="29.97" dpF="66" gmtMin="180" sr="0:56" ss="18:12" day="True" code="RSXX1499" codeForeca="100819827" name="Южное Чертаново" country="Россия" state="Москва" lat="55.592" lon="37.606" pop="133008" prov="w" NOAA="0" OWM="1" Yr="1" Foreca="0"/>
    <l feed="2" ros="n" station="owm_RSXX0063" delay="41" icon="26" tempC="27" tempF="81" ws="5" wd="204" rh="48" psl="29.94" dpF="59" gmtMin="180" sr="0:55" ss="18:13" day="True" code="RSXX0063" codeForeca="100524901" name="Зюзино" country="Россия" state="Москва" lat="55.656" lon="37.568" pop="121000" prov="w" NOAA="0" OWM="1" Yr="1" Foreca="0"/>

    <!-- trace_Region=  isForeca=0 -->
</ls>

        <!-- lsTrace from="ibm" t="31.2411" countAll="47"  countSkipCity="0"  countSkipForeca="0"  countSkipCC="0"  countSkipTemp="0" -->

        <!-- total time=31.2411 ms. InitCash=0 ms. AQI=0 ms. locations=31.2411 ms. weather=0 ms. -->
