{
  "1": {
    "timezone": "Europe/Moscow",
    "lon": "37.380031",
    "utcoffset": 3.0,
    "name": "Москва и Московская область",
    "lat": "55.815792"
  },
  "2": {
    "timezone": "Europe/Moscow",
    "lon": "30.315868",
    "utcoffset": 3.0,
    "name": "Санкт-Петербург",
    "lat": "59.939095"
  },
  "3": {
    "timezone": "Europe/Moscow",
    "lon": "38.064718",
    "utcoffset": 3.0,
    "name": "Центральный федеральный округ",
    "lat": "54.873745"
  },
  "4": {
    "timezone": "Europe/Moscow",
    "lon": "36.588849",
    "utcoffset": 3.0,
    "name": "Белгород",
    "lat": "50.597467"
  },
  "5": {
    "timezone": "Europe/Moscow",
    "lon": "40.973921",
    "utcoffset": 3.0,
    "name": "Иваново",
    "lat": "57.000348"
  },
  "6": {
    "timezone": "Europe/Moscow",
    "lon": "36.252277",
    "utcoffset": 3.0,
    "name": "Калуга",
    "lat": "54.507014"
  },
  "7": {
    "timezone": "Europe/Moscow",
    "lon": "40.926858",
    "utcoffset": 3.0,
    "name": "Кострома",
    "lat": "57.767961"
  },
  "8": {
    "timezone": "Europe/Moscow",
    "lon": "36.192647",
    "utcoffset": 3.0,
    "name": "Курск",
    "lat": "51.730361"
  },
  "9": {
    "timezone": "Europe/Moscow",
    "lon": "39.594719",
    "utcoffset": 3.0,
    "name": "Липецк",
    "lat": "52.61022"
  },
  "10": {
    "timezone": "Europe/Moscow",
    "lon": "36.069613",
    "utcoffset": 3.0,
    "name": "Орёл",
    "lat": "52.967187"
  },
  "11": {
    "timezone": "Europe/Moscow",
    "lon": "39.734928",
    "utcoffset": 3.0,
    "name": "Рязань",
    "lat": "54.629169"
  },
  "12": {
    "timezone": "Europe/Moscow",
    "lon": "32.044128",
    "utcoffset": 3.0,
    "name": "Смоленск",
    "lat": "54.782526"
  },
  "13": {
    "timezone": "Europe/Moscow",
    "lon": "41.452238",
    "utcoffset": 3.0,
    "name": "Тамбов",
    "lat": "52.721246"
  },
  "14": {
    "timezone": "Europe/Moscow",
    "lon": "35.911896",
    "utcoffset": 3.0,
    "name": "Тверь",
    "lat": "56.859611"
  },
  "15": {
    "timezone": "Europe/Moscow",
    "lon": "37.617752",
    "utcoffset": 3.0,
    "name": "Тула",
    "lat": "54.193033"
  },
  "16": {
    "timezone": "Europe/Moscow",
    "lon": "39.893885",
    "utcoffset": 3.0,
    "name": "Ярославль",
    "lat": "57.626549"
  },
  "18": {
    "timezone": "Europe/Moscow",
    "lon": "34.359688",
    "utcoffset": 3.0,
    "name": "Петрозаводск",
    "lat": "61.789036"
  },
  "19": {
    "timezone": "Europe/Moscow",
    "lon": "50.835716",
    "utcoffset": 3.0,
    "name": "Сыктывкар",
    "lat": "61.668673"
  },
  "20": {
    "timezone": "Europe/Moscow",
    "lon": "40.516939",
    "utcoffset": 3.0,
    "name": "Архангельск",
    "lat": "64.539393"
  },
  "21": {
    "timezone": "Europe/Moscow",
    "lon": "39.891568",
    "utcoffset": 3.0,
    "name": "Вологда",
    "lat": "59.220492"
  },
  "22": {
    "timezone": "Europe/Kaliningrad",
    "lon": "20.507307",
    "utcoffset": 2.0,
    "name": "Калининград",
    "lat": "54.70739"
  },
  "23": {
    "timezone": "Europe/Moscow",
    "lon": "33.07454",
    "utcoffset": 3.0,
    "name": "Мурманск",
    "lat": "68.969563"
  },
  "24": {
    "timezone": "Europe/Moscow",
    "lon": "31.275475",
    "utcoffset": 3.0,
    "name": "Великий Новгород",
    "lat": "58.521475"
  },
  "25": {
    "timezone": "Europe/Moscow",
    "lon": "28.331786",
    "utcoffset": 3.0,
    "name": "Псков",
    "lat": "57.819365"
  },
  "26": {
    "timezone": "Europe/Moscow",
    "lon": "43.166151",
    "utcoffset": 3.0,
    "name": "Южный федеральный округ",
    "lat": "48.622558"
  },
  "27": {
    "timezone": "Europe/Moscow",
    "lon": "37.620393",
    "utcoffset": 3.0,
    "name": "Москва",
    "lat": "55.75396"
  },
  "28": {
    "timezone": "Europe/Moscow",
    "lon": "47.504682",
    "utcoffset": 3.0,
    "name": "Махачкала",
    "lat": "42.98306"
  },
  "30": {
    "timezone": "Europe/Moscow",
    "lon": "43.607072",
    "utcoffset": 3.0,
    "name": "Нальчик",
    "lat": "43.485278"
  },
  "33": {
    "timezone": "Europe/Moscow",
    "lon": "44.681888",
    "utcoffset": 3.0,
    "name": "Владикавказ",
    "lat": "43.020603"
  },
  "35": {
    "timezone": "Europe/Moscow",
    "lon": "38.975996",
    "utcoffset": 3.0,
    "name": "Краснодар",
    "lat": "45.040216"
  },
  "36": {
    "timezone": "Europe/Moscow",
    "lon": "41.969065",
    "utcoffset": 3.0,
    "name": "Ставрополь",
    "lat": "45.044502"
  },
  "37": {
    "timezone": "Europe/Astrakhan",
    "lon": "48.033574",
    "utcoffset": 4.0,
    "name": "Астрахань",
    "lat": "46.347869"
  },
  "38": {
    "timezone": "Europe/Moscow",
    "lon": "44.516939",
    "utcoffset": 3.0,
    "name": "Волгоград",
    "lat": "48.707103"
  },
  "39": {
    "timezone": "Europe/Moscow",
    "lon": "39.718705",
    "utcoffset": 3.0,
    "name": "Ростов-на-Дону",
    "lat": "47.222531"
  },
  "41": {
    "timezone": "Europe/Moscow",
    "lon": "47.899878",
    "utcoffset": 3.0,
    "name": "Йошкар-Ола",
    "lat": "56.634407"
  },
  "42": {
    "timezone": "Europe/Moscow",
    "lon": "45.186355",
    "utcoffset": 3.0,
    "name": "Саранск",
    "lat": "54.180878"
  },
  "43": {
    "timezone": "Europe/Moscow",
    "lon": "49.106324",
    "utcoffset": 3.0,
    "name": "Казань",
    "lat": "55.798551"
  },
  "44": {
    "timezone": "Europe/Samara",
    "lon": "53.211463",
    "utcoffset": 4.0,
    "name": "Ижевск",
    "lat": "56.852775"
  },
  "45": {
    "timezone": "Europe/Moscow",
    "lon": "47.239894",
    "utcoffset": 3.0,
    "name": "Чебоксары",
    "lat": "56.138654"
  },
  "46": {
    "timezone": "Europe/Moscow",
    "lon": "49.668023",
    "utcoffset": 3.0,
    "name": "Киров",
    "lat": "58.603581"
  },
  "47": {
    "timezone": "Europe/Moscow",
    "lon": "44.005986",
    "utcoffset": 3.0,
    "name": "Нижний Новгород",
    "lat": "56.326887"
  },
  "48": {
    "timezone": "Asia/Yekaterinburg",
    "lon": "55.096955",
    "utcoffset": 5.0,
    "name": "Оренбург",
    "lat": "51.768199"
  },
  "49": {
    "timezone": "Europe/Moscow",
    "lon": "45.019529",
    "utcoffset": 3.0,
    "name": "Пенза",
    "lat": "53.194546"
  },
  "50": {
    "timezone": "Asia/Yekaterinburg",
    "lon": "56.234195",
    "utcoffset": 5.0,
    "name": "Пермь",
    "lat": "58.010259"
  },
  "51": {
    "timezone": "Europe/Samara",
    "lon": "50.101819",
    "utcoffset": 4.0,
    "name": "Самара",
    "lat": "53.195522"
  },
  "52": {
    "timezone": "Asia/Yekaterinburg",
    "lon": "64.350447",
    "utcoffset": 5.0,
    "name": "Уральский федеральный округ",
    "lat": "60.519886"
  },
  "53": {
    "timezone": "Asia/Yekaterinburg",
    "lon": "65.344316",
    "utcoffset": 5.0,
    "name": "Курган",
    "lat": "55.441606"
  },
  "54": {
    "timezone": "Asia/Yekaterinburg",
    "lon": "60.605514",
    "utcoffset": 5.0,
    "name": "Екатеринбург",
    "lat": "56.838607"
  },
  "55": {
    "timezone": "Asia/Yekaterinburg",
    "lon": "65.534328",
    "utcoffset": 5.0,
    "name": "Тюмень",
    "lat": "57.153033"
  },
  "56": {
    "timezone": "Asia/Yekaterinburg",
    "lon": "61.400856",
    "utcoffset": 5.0,
    "name": "Челябинск",
    "lat": "55.160283"
  },
  "57": {
    "timezone": "Asia/Yekaterinburg",
    "lon": "69.018408",
    "utcoffset": 5.0,
    "name": "Ханты-Мансийск",
    "lat": "61.002486"
  },
  "58": {
    "timezone": "Asia/Yekaterinburg",
    "lon": "66.613851",
    "utcoffset": 5.0,
    "name": "Салехард",
    "lat": "66.530715"
  },
  "62": {
    "timezone": "Asia/Krasnoyarsk",
    "lon": "92.852545",
    "utcoffset": 7.0,
    "name": "Красноярск",
    "lat": "56.010569"
  },
  "63": {
    "timezone": "Asia/Irkutsk",
    "lon": "104.28066",
    "utcoffset": 8.0,
    "name": "Иркутск",
    "lat": "52.286387"
  },
  "64": {
    "timezone": "Asia/Novokuznetsk",
    "lon": "86.087314",
    "utcoffset": 7.0,
    "name": "Кемерово",
    "lat": "55.354968"
  },
  "65": {
    "timezone": "Asia/Novosibirsk",
    "lon": "82.92043",
    "utcoffset": 7.0,
    "name": "Новосибирск",
    "lat": "55.030199"
  },
  "66": {
    "timezone": "Asia/Omsk",
    "lon": "73.368212",
    "utcoffset": 6.0,
    "name": "Омск",
    "lat": "54.989342"
  },
  "67": {
    "timezone": "Asia/Tomsk",
    "lon": "84.948197",
    "utcoffset": 7.0,
    "name": "Томск",
    "lat": "56.48468"
  },
  "68": {
    "timezone": "Asia/Chita",
    "lon": "113.499432",
    "utcoffset": 9.0,
    "name": "Чита",
    "lat": "52.033973"
  },
  "74": {
    "timezone": "Asia/Yakutsk",
    "lon": "129.732555",
    "utcoffset": 9.0,
    "name": "Якутск",
    "lat": "62.028098"
  },
  "75": {
    "timezone": "Asia/Vladivostok",
    "lon": "131.882475",
    "utcoffset": 10.0,
    "name": "Владивосток",
    "lat": "43.116418"
  },
  "76": {
    "timezone": "Asia/Vladivostok",
    "lon": "135.057732",
    "utcoffset": 10.0,
    "name": "Хабаровск",
    "lat": "48.472584"
  },
  "77": {
    "timezone": "Asia/Yakutsk",
    "lon": "127.527173",
    "utcoffset": 9.0,
    "name": "Благовещенск",
    "lat": "50.290658"
  },
  "78": {
    "timezone": "Asia/Kamchatka",
    "lon": "158.655918",
    "utcoffset": 12.0,
    "name": "Петропавловск-Камчатский",
    "lat": "53.03704"
  },
  "79": {
    "timezone": "Asia/Magadan",
    "lon": "150.808541",
    "utcoffset": 11.0,
    "name": "Магадан",
    "lat": "59.568164"
  },
  "80": {
    "timezone": "Asia/Sakhalin",
    "lon": "142.738041",
    "utcoffset": 11.0,
    "name": "Южно-Сахалинск",
    "lat": "46.959179"
  },
  "86": {
    "timezone": "America/Kentucky/Monticello",
    "lon": "-84.381288",
    "utcoffset": -4.0,
    "name": "Атланта",
    "lat": "33.740114"
  },
  "87": {
    "timezone": "America/New_York",
    "lon": "-77.035059",
    "utcoffset": -4.0,
    "name": "Вашингтон",
    "lat": "38.900874"
  },
  "89": {
    "timezone": "America/Detroit",
    "lon": "-83.041548",
    "utcoffset": -4.0,
    "name": "Детройт",
    "lat": "42.33414"
  },
  "90": {
    "timezone": "America/Los_Angeles",
    "lon": "-122.410356",
    "utcoffset": -7.0,
    "name": "Сан-Франциско",
    "lat": "37.775755"
  },
  "91": {
    "timezone": "America/Los_Angeles",
    "lon": "-122.332305",
    "utcoffset": -7.0,
    "name": "Сиэтл",
    "lat": "47.605882"
  },
  "93": {
    "timezone": "America/Argentina/Buenos_Aires",
    "lon": "-65.101987",
    "utcoffset": -3.0,
    "name": "Аргентина",
    "lat": "-35.194853"
  },
  "96": {
    "timezone": "Europe/Berlin",
    "lon": "10.400847",
    "utcoffset": 2.0,
    "name": "Германия",
    "lat": "51.121536"
  },
  "97": {
    "timezone": "Europe/Berlin",
    "lon": "8.671024",
    "utcoffset": 2.0,
    "name": "Хайдельберг",
    "lat": "49.399896"
  },
  "98": {
    "timezone": "Europe/Berlin",
    "lon": "6.960586",
    "utcoffset": 2.0,
    "name": "Кельн",
    "lat": "50.935458"
  },
  "99": {
    "timezone": "Europe/Berlin",
    "lon": "11.574832",
    "utcoffset": 2.0,
    "name": "Мюнхен",
    "lat": "48.134602"
  },
  "100": {
    "timezone": "Europe/Berlin",
    "lon": "8.682566",
    "utcoffset": 2.0,
    "name": "Франкфурт-на-Майне",
    "lat": "50.112229"
  }
}